[
  {
    "nombre": "Sede Central Bogotá",
    "direccion": "Cra 15 # 90-50",
    "ciudad": "Bogotá",
    "lat": 4.710989,
    "lng": -74.072092
  },
  {
    "nombre": "Sede Medellín",
    "direccion": "Calle 10 # 43A-20",
    "ciudad": "Medellín",
    "lat": 6.244203,
    "lng": -75.581215
  },
  {
    "nombre": "Sede Cali",
    "direccion": "Av 6N # 23-45",
    "ciudad": "Cali",
    "lat": 3.451647,
    "lng": -76.531985
  },
  {
    "nombre": "Sede Barranquilla",
    "direccion": "Calle 76 # 54-30",
    "ciudad": "Barranquilla",
    "lat": 10.963889,
    "lng": -74.796387
  },
  {
    "nombre": "Sede Bucaramanga",
    "direccion": "Cra 27 # 36-18",
    "ciudad": "Bucaramanga",
    "lat": 7.119349,
    "lng": -73.122741
  },
  {
    "nombre": "Sede Pereira",
    "direccion": "Cra 8 # 20-25",
    "ciudad": "Pereira",
    "lat": 4.814278,
    "lng": -75.694573
  },
  {
    "nombre": "Sede Cartagena",
    "direccion": "Av Pedro de Heredia # 31-12",
    "ciudad": "Cartagena",
    "lat": 10.391049,
    "lng": -75.479426
  },
  {
    "nombre": "Sede Manizales",
    "direccion": "Cra 23 # 54-10",
    "ciudad": "Manizales",
    "lat": 5.06889,
    "lng": -75.51738
  }
]
